City_ID,City,Lat,Lng,Max Temp,Humidity,Cloudiness,Wind Speed,Country,Date
0,derbent,42.0678,48.2899,298.09,63,0,3.38,RU,1722454984
1,"poblacion, san felipe",14.5665,121.0308,301.13,91,40,0.51,PH,1722454984
2,awjilah,29.1081,21.2869,303.54,40,0,6.83,LY,1722454757
3,kodiak,57.79,-152.4072,290.88,45,0,9.26,US,1722454985
4,puerto natales,-51.7236,-72.4875,275.4,93,75,2.06,CL,1722454985
5,kourou,5.1552,-52.6478,305.18,67,0,3.72,GF,1722455178
6,cadale,2.7603,46.3222,297.84,83,41,6.86,SO,1722455179
7,punta arenas,-53.15,-70.9167,277.21,100,100,8.75,CL,1722455181
8,grytviken,-54.2811,-36.5092,265.37,75,72,7.54,GS,1722455182
9,port elizabeth,-33.918,25.5701,286.1,81,0,5.66,ZA,1722455184
10,ushuaia,-54.8,-68.3,277.96,60,40,5.14,AR,1722455185
11,tiksi,71.6872,128.8694,275.71,78,96,2.5,RU,1722455186
12,edinburgh of the seven seas,-37.0676,-12.3116,284.73,55,21,7.12,SH,1722455188
13,olonkinbyen,70.9221,-8.7187,278.89,97,100,4.1,SJ,1722455189
14,ulsteinvik,62.3432,5.8487,287.65,75,11,3.58,NO,1722455190
15,ghanzi,-21.5667,21.7833,289.29,18,3,1.67,BW,1722455192
16,kill devil hills,36.0307,-75.676,303.7,67,0,5.14,US,1722455193
17,qaqortoq,60.7167,-46.0333,286.64,41,0,4.82,GL,1722455194
18,kingston,17.997,-76.7936,307.13,66,20,10.8,JM,1722455196
19,tympaki,35.0729,24.7685,300.13,52,0,5.81,GR,1722455197
20,port lincoln,-34.7333,135.8667,283.95,56,68,4.49,AU,1722455198
21,pemangkat,1.1667,108.9667,300.27,80,31,1.0,ID,1722455200
22,lhokseumawe,5.1801,97.1507,299.08,87,100,3.26,ID,1722455201
23,asau,46.4333,26.4,291.66,56,0,1.93,RO,1722455202
24,aileu,-8.7281,125.5664,290.2,87,4,2.26,TL,1722455204
25,adamstown,-25.066,-130.1015,295.62,83,51,10.87,PN,1722455205
26,labuan,5.2767,115.2417,299.35,94,20,0.0,MY,1722455206
27,lethem,3.3803,-59.7968,302.03,71,98,1.76,GY,1722455208
28,shahrud,36.4182,54.9763,301.02,39,0,3.96,IR,1722455209
29,choibalsan,48.0667,114.5,290.36,93,100,2.89,MN,1722455210
30,talipparamba,12.05,75.35,296.45,98,100,1.05,IN,1722455212
31,wajir,1.7471,40.0573,300.99,45,70,8.95,KE,1722455213
32,stanley,54.868,-1.6985,291.76,78,20,1.54,GB,1722455214
33,almenara,-16.1836,-40.6944,296.48,72,100,2.06,BR,1722455216
34,laascaanood,8.4774,47.3597,300.06,48,9,11.18,SO,1722455218
35,bilibino,68.0546,166.4372,274.72,62,100,2.46,RU,1722455220
36,walvis bay,-22.9575,14.5053,284.31,85,0,2.74,NA,1722455221
37,ponta delgada,37.7333,-25.6667,298.55,73,40,2.57,PT,1722455115
38,olyokminsk,60.3736,120.4264,283.54,56,100,1.4,RU,1722455224
39,bandarbeyla,9.4942,50.8122,297.85,84,22,14.67,SO,1722455225
40,blackmans bay,-43.0167,147.3167,277.44,93,14,0.45,AU,1722455227
41,anadyr,64.75,177.4833,285.43,87,75,2.0,RU,1722455228
42,temiskaming shores,47.4938,-79.7153,300.04,35,0,4.46,CA,1722455130
43,margaret river,-33.95,115.0667,283.88,66,93,10.33,AU,1722455231
44,enewetak,11.3474,162.3373,301.68,76,25,5.88,MH,1722455232
45,lihue,21.9789,-159.3672,299.92,71,0,6.17,US,1722455233
46,badger,64.8,-147.5333,286.1,77,75,5.14,US,1722455235
47,tura,25.5198,90.2201,297.72,97,63,2.42,IN,1722455236
48,ilulissat,69.2167,-51.1,279.16,87,40,3.09,GL,1722455237
49,serhiyivka,46.0272,30.3768,296.33,54,0,4.12,UA,1722455238
50,al jawf,29.5,38.75,305.27,16,5,4.27,SA,1722455240
51,port-aux-francais,-49.35,70.2167,278.03,99,100,11.84,TF,1722455241
52,kapuskasing,49.4169,-82.4331,303.2,54,40,4.63,CA,1722455243
53,la ronge,55.1001,-105.2842,301.27,34,75,7.2,CA,1722455244
54,modesto,37.6391,-120.9969,304.34,37,0,3.09,US,1722454978
55,el porvenir,13.7617,-87.3458,303.78,41,88,1.83,HN,1722455246
56,nouadhibou,20.931,-17.0347,296.14,78,4,9.26,MR,1722455248
57,wailua homesteads,22.0669,-159.378,299.59,75,0,6.17,US,1722455249
58,rio grande,-32.035,-52.0986,295.21,84,13,4.9,BR,1722455243
59,touros,-5.1989,-35.4608,298.65,76,7,7.32,BR,1722455252
60,horta,38.5333,-28.6333,298.95,74,20,4.63,PT,1722455253
61,lebu,-37.6167,-73.65,284.39,92,100,13.63,CL,1722455254
62,mahajanga,-15.7167,46.3167,296.16,83,0,2.06,MG,1722455256
63,buritis,-15.6178,-46.4233,303.2,26,13,3.83,BR,1722455257
64,bethel,41.3712,-73.414,302.6,71,97,2.85,US,1722455258
65,homer,59.6425,-151.5483,290.24,72,0,3.6,US,1722455260
66,bathsheba,13.2167,-59.5167,303.49,74,20,3.09,BB,1722455261
67,murudeshwara,14.0943,74.4845,300.37,62,100,4.16,IN,1722455262
68,morondava,-20.2833,44.2833,293.89,57,4,4.41,MG,1722455264
69,pitimbu,-7.4706,-34.8086,301.48,80,6,7.68,BR,1722455265
70,waitangi,-43.9535,-176.5597,279.72,95,100,7.22,NZ,1722455266
71,villa gesell,-37.2639,-56.973,285.22,80,100,6.05,AR,1722455268
72,mount gambier,-37.8333,140.7667,277.1,91,19,2.52,AU,1722455064
73,klyuchi,52.2667,79.1667,295.65,54,2,2.65,RU,1722455270
74,uvira,-3.4067,29.1458,298.16,51,82,0.55,CD,1722455272
75,dhamar,14.5427,44.4051,290.3,70,100,2.28,YE,1722455273
76,tsiombe,-25.3,45.4833,289.43,75,0,0.68,MG,1722455063
77,porto torres,40.835,8.3972,301.25,52,0,1.16,IT,1722455275
78,iqaluit,63.7506,-68.5145,283.0,66,20,4.63,CA,1722455277
79,bredasdorp,-34.5322,20.0403,280.18,84,0,1.79,ZA,1722455278
80,hadibu,12.65,54.0333,298.68,81,32,8.75,YE,1722455279
81,puerto aysen,-45.4,-72.7,279.31,100,100,1.12,CL,1722455055
82,agadez,19.75,10.25,307.87,15,37,2.12,NE,1722455282
83,yellowknife,62.456,-114.3525,293.38,58,75,5.66,CA,1722455283
84,vilhena,-12.7406,-60.1458,306.27,27,40,3.6,BR,1722455285
85,west end,26.6833,-78.9667,305.14,69,100,3.58,BS,1722455286
86,fallon,39.4735,-118.7774,305.08,28,100,1.54,US,1722455287
87,nova sintra,14.8667,-24.7167,298.29,77,49,6.4,CV,1722455289
88,lerwick,60.1545,-1.1494,285.15,81,100,3.16,GB,1722455290
89,marquette,46.5333,-87.6335,302.61,60,5,2.24,US,1722455287
90,port alfred,-33.5906,26.891,285.3,73,0,6.72,ZA,1722455293
91,chinde,26.8212,87.7095,299.17,86,100,2.01,NP,1722455294
92,arraial do cabo,-22.9661,-42.0278,296.07,73,40,5.14,BR,1722455209
93,albany,42.6001,-73.9662,300.19,75,81,0.45,US,1722455108
94,freetown,8.484,-13.2299,297.46,95,100,3.92,SL,1722455298
95,thompson,55.7435,-97.8558,299.24,38,20,3.09,CA,1722455299
96,saipan,15.1355,145.701,301.54,83,0,2.06,MP,1722455037
97,malakal,9.5334,31.6605,294.61,96,100,2.11,SS,1722455302
98,sandnessjoen,66.0217,12.6316,288.44,77,75,5.14,NO,1722455053
99,itaguacu,-19.8019,-40.8556,297.11,61,46,3.43,BR,1722455304
100,banjar,-8.19,114.9675,297.26,91,40,1.29,ID,1722455306
101,mehdia daira de meghila,35.4306,1.7571,308.62,17,0,3.75,DZ,1722455307
102,yanam,16.7333,82.2167,300.09,88,100,1.45,IN,1722455308
103,port mathurin,-19.6833,63.4167,296.07,77,49,7.0,MU,1722455310
104,georgetown,5.4112,100.3354,302.11,83,20,1.54,MY,1722455311
105,tateyama,34.9833,139.8667,298.76,79,100,3.03,JP,1722455312
106,tolanaro,-25.0319,46.9987,290.19,94,20,2.06,MG,1722455314
107,san patricio,28.017,-97.5169,307.13,46,0,8.42,US,1722455315
108,zheshart,62.0731,49.5733,288.6,92,99,1.47,RU,1722455316
109,santa maria,-29.6842,-53.8069,295.76,60,0,4.63,BR,1722455207
110,imbituba,-28.24,-48.6703,291.96,82,47,5.69,BR,1722455319
111,lorengau,-2.0226,147.2712,300.29,84,22,5.27,PG,1722455320
112,belyy yar,53.6039,91.3903,289.09,100,13,1.0,RU,1722455322
113,college,64.8569,-147.8028,286.14,79,75,5.14,US,1722455323
114,bure,10.7,37.0667,287.42,97,100,1.53,ET,1722455324
115,gao,16.6362,1.637,297.76,71,100,7.8,ML,1722455326
116,sos'va,59.1766,61.8558,288.19,96,100,1.21,RU,1722455327
117,avarua,-21.2078,-159.775,295.18,53,0,2.57,CK,1722455328
118,zyryanskoye,56.8306,86.6258,288.12,84,31,2.14,RU,1722455330
119,alesund,62.4723,6.1549,287.66,72,40,3.6,NO,1722455154
120,qamdo,31.1667,97.2333,279.07,56,90,0.77,CN,1722455333
121,lishui,28.4604,119.9103,298.57,96,0,0.92,CN,1722455335
122,huilong,31.8111,121.655,300.54,90,0,3.09,CN,1722455336
123,west island,-12.1568,96.8225,300.14,69,75,5.66,CC,1722455337
124,qarauyl,48.9451,79.255,295.53,45,0,1.8,KZ,1722455339
125,pyhajarvi,67.0701,27.2176,286.46,94,100,1.35,FI,1722455341
126,whitehorse,60.7161,-135.0538,284.83,86,100,3.09,CA,1722455342
127,sarangani,5.4033,125.4636,301.59,74,59,1.95,PH,1722455344
128,papatowai,-46.5619,169.4708,276.87,83,75,1.66,NZ,1722455345
129,balqash,46.8481,74.995,300.37,38,0,7.75,KZ,1722455346
130,fuling,29.7022,107.3919,297.76,89,0,1.66,CN,1722455348
131,akureyri,65.6835,-18.0878,291.11,55,40,3.09,IS,1722455094
132,puro,12.4841,123.3827,299.98,80,100,0.64,PH,1722455350
133,longyearbyen,78.2186,15.6401,285.06,76,0,5.14,SJ,1722455352
134,saudarkrokur,65.7461,-19.6394,287.48,71,100,1.98,IS,1722455353
135,guerrero negro,27.9769,-114.0611,297.58,57,3,7.68,MX,1722455354
136,potosi,-19.5836,-65.7531,289.63,19,0,6.17,BO,1722455349
137,ribeira grande,38.5167,-28.7,299.37,65,20,4.63,PT,1722455357
138,tonota,-21.4833,27.4833,291.92,43,0,7.17,BW,1722455358
139,zhanjiang,21.2815,110.3427,298.98,90,94,3.07,CN,1722455361
140,n'zeto,-7.2312,12.8666,293.45,88,0,4.39,AO,1722455362
141,nar'yan-mar,67.6713,53.087,289.76,82,86,4.1,RU,1722455363
142,tamanrasset,22.785,5.5228,304.1,18,0,2.06,DZ,1722455365
143,rosso,16.4986,-15.8153,300.85,63,7,6.75,SN,1722455366
144,ishigaki,24.3448,124.1572,300.22,100,40,0.51,JP,1722455367
145,utrik,11.2278,169.8474,301.17,78,82,6.27,MH,1722455369
146,amos,48.5669,-78.1162,297.3,82,10,3.2,CA,1722455263
147,aasiaat,68.7098,-52.8699,275.84,88,69,2.09,GL,1722455371
148,princeville,45.7668,-61.2985,302.97,71,100,3.62,CA,1722455373
149,lompoc,34.6391,-120.4579,300.23,67,2,2.68,US,1722455374
150,mammoth lakes,37.6485,-118.9721,299.71,16,0,6.17,US,1722455375
151,tralee,52.2704,-9.7026,291.29,77,40,2.57,IE,1722455376
152,linxia chengguanzhen,35.6003,103.2064,289.73,48,0,2.42,CN,1722455378
153,worthing,50.8145,-0.3713,295.46,88,3,1.1,GB,1722455167
154,la passe,45.5549,-0.8967,298.28,92,0,3.29,FR,1722455380
155,constantia,44.1833,28.65,295.76,60,0,5.1,RO,1722455382
156,mizdah,31.4451,12.9801,301.62,39,46,5.56,LY,1722455383
157,bonthe,7.5264,-12.505,297.93,88,92,4.98,SL,1722455384
158,san antonio de pale,-1.4014,5.6325,295.64,79,100,4.59,GQ,1722455386
159,gazojak,41.1875,61.4036,304.52,14,0,3.85,TM,1722455387
160,iskateley,67.6803,53.1512,289.7,82,85,4.11,RU,1722455388
161,iwanai,42.9744,140.5089,292.0,97,100,1.16,JP,1722455390
162,albertirsa,47.2431,19.6169,297.06,23,7,2.13,HU,1722455391
163,buala,-8.145,159.5921,298.98,82,32,1.78,SB,1722455392
164,acarau,-2.8856,-40.12,300.15,74,1,8.38,BR,1722455394
165,invercargill,-46.4,168.35,273.72,91,9,0.89,NZ,1722455396
166,flin flon,54.7682,-101.865,300.06,34,20,5.14,CA,1722455398
167,kasempa,-13.4584,25.8338,290.53,20,5,2.5,ZM,1722455399
168,shenjiamen,29.9576,122.298,300.5,90,6,10.41,CN,1722455400
169,jaisalmer,26.9147,70.9181,304.4,67,100,9.04,IN,1722455402
170,eskisehir,39.7767,30.5206,293.08,68,0,3.6,TR,1722455403
171,kasongo-lunda,-6.4667,16.8167,299.3,35,0,0.62,CD,1722455404
172,la'ie,21.6477,-157.9253,300.96,71,100,2.24,US,1722455406
173,enshi,30.3,109.4833,295.03,97,76,0.18,CN,1722455407
174,oconomowoc,43.1117,-88.4993,305.41,57,40,2.57,US,1722455408
175,fort bragg,35.139,-79.006,306.47,57,40,4.12,US,1722455410
176,springbok,-29.6643,17.8865,281.92,15,0,2.83,ZA,1722455411
177,carnarvon,-24.8667,113.6333,292.76,80,0,5.09,AU,1722455412
178,hobyo,5.3505,48.5268,297.64,83,100,12.01,SO,1722455413
179,devonport,-41.1667,146.35,277.88,96,31,3.51,AU,1722455415
180,aswan,24.0934,32.907,311.76,13,0,3.09,EG,1722455416
181,caleta de carquin,-11.0925,-77.6267,293.29,71,7,3.99,PE,1722455417
182,fale old settlement,-9.3852,-171.2468,300.22,73,100,9.63,TK,1722455419
183,plettenberg bay,-34.0527,23.3716,283.18,69,0,2.76,ZA,1722455420
184,hermanus,-34.4187,19.2345,278.6,73,0,1.11,ZA,1722455163
185,babat,-7.1128,112.1635,295.86,94,15,2.16,ID,1722455423
186,vila franca do campo,37.7167,-25.4333,298.38,81,46,2.46,PT,1722455424
187,vadso,70.0744,29.7487,285.64,82,0,8.75,NO,1722455425
188,roxas,11.5853,122.7511,298.23,86,100,1.59,PH,1722455427
189,polyarnyy,69.1989,33.4478,282.84,89,100,7.23,RU,1722455428
190,vorgashor,67.5833,63.95,289.65,86,94,1.19,RU,1722455429
191,al mijlad,11.0333,27.7333,298.53,76,92,5.06,SD,1722455431
192,kone,-21.0595,164.8658,291.43,80,100,2.33,NC,1722455432
193,vikhorevka,56.1201,101.1636,291.92,99,100,1.2,RU,1722455433
194,taro,-8.3862,115.28,295.15,99,62,0.66,ID,1722455435
195,kaohsiung,22.6163,120.3133,300.12,92,75,1.03,TW,1722455436
196,ulladulla,-35.35,150.4667,283.42,67,96,5.24,AU,1722455438
197,ojai,34.4481,-119.2429,305.82,51,11,2.24,US,1722455439
198,tobati,-25.25,-57.0667,300.86,44,5,3.5,PY,1722455440
199,crane,31.3974,-102.3501,310.5,30,0,8.62,US,1722455442
200,parry sound,45.3501,-80.033,298.18,69,0,4.03,CA,1722455195
201,tommot,58.9564,126.2925,283.1,71,100,1.24,RU,1722455444
202,prainha,-1.8,-53.48,307.76,35,41,3.06,BR,1722455446
203,massawa,15.6097,39.45,307.86,55,100,2.89,ER,1722455447
204,susuman,62.7833,148.1667,276.55,79,100,2.87,RU,1722455448
205,maharajganj,27.1333,83.5667,300.6,86,37,1.36,IN,1722455450
206,igarka,67.4667,86.5833,290.54,66,100,5.93,RU,1722455451
207,boda,4.3189,17.4695,297.81,71,90,1.4,CF,1722455452
208,kidal,18.4411,1.4078,300.71,67,79,12.78,ML,1722455453
209,pariaman,-0.619,100.12,298.18,89,86,1.58,ID,1722455455
210,gwadar,25.1216,62.3254,301.65,87,100,4.97,PK,1722455456
211,sitka,57.0531,-135.33,288.09,77,100,2.06,US,1722455457
212,bac lieu,9.285,105.7244,300.23,85,100,3.39,VN,1722455459
213,parang,7.3704,124.2697,296.53,93,98,1.32,PH,1722455460
214,udachny,66.4167,112.4,279.89,70,86,1.49,RU,1722455462
215,cheongsong gun,36.4335,129.057,296.02,99,42,1.37,KR,1722455463
216,phan rang-thap cham,11.5667,108.9833,297.96,90,95,1.2,VN,1722455464
217,kilindoni,-7.9139,39.6668,298.28,73,2,7.28,TZ,1722455465
218,prince rupert,54.3161,-130.3201,287.2,98,100,5.66,CA,1722455468
219,nuuk,64.1835,-51.7216,283.49,57,20,9.26,GL,1722455469
220,sodra sandby,56.5667,16.6167,294.2,64,0,5.52,SE,1722455471
221,lauro de freitas,-12.8944,-38.3272,300.16,61,20,5.14,BR,1722455472
222,rikaze,29.25,88.8833,288.48,49,25,1.79,CN,1722455473
223,nguruka,-5.1092,31.0419,294.46,27,41,1.49,TZ,1722455475
224,port saint john's,-31.6229,29.5448,286.96,65,0,3.45,ZA,1722455476
225,arkhara,49.4212,130.0842,293.41,88,100,2.12,RU,1722455477
226,nago,26.5881,127.9761,302.39,86,7,2.38,JP,1722455479
227,peniche,39.3558,-9.3811,294.93,88,100,6.66,PT,1722455480
228,selfoss,63.9331,-20.9971,285.33,90,100,6.12,IS,1722455482
229,prince albert,53.2001,-105.7677,301.12,39,20,2.57,CA,1722455483
230,bubaque,11.2833,-15.8333,299.69,79,45,7.13,GW,1722455484
231,pleszew,51.8964,17.7855,293.65,48,97,1.53,PL,1722455485
232,pathein,16.7833,94.7333,298.62,95,100,3.19,MM,1722455487
233,ust-nera,64.5667,143.2,275.76,97,100,3.84,RU,1722455488
234,tazacorte,28.629,-17.9293,297.12,81,20,7.72,ES,1722455489
235,plastun,44.7561,136.2939,290.29,100,100,1.53,RU,1722455491
236,harstad,68.799,16.5293,290.16,70,69,2.68,NO,1722455492
237,sanctuary point,-35.1114,150.629,284.68,71,100,5.59,AU,1722455495
238,kailua-kona,19.6406,-155.9956,300.53,79,75,4.63,US,1722455300
239,de aar,-30.6497,24.0123,281.82,11,0,3.54,ZA,1722455497
240,menongue,-14.6585,17.691,289.12,22,22,0.72,AO,1722455499
241,geraldton,-28.7667,114.6,289.38,77,75,8.75,AU,1722455500
242,hithadhoo,-0.6,73.0833,301.86,78,76,6.08,MV,1722455501
243,kalmunai,7.4167,81.8167,301.17,76,100,2.08,LK,1722455502
244,saint-pierre,-21.3393,55.4781,292.97,60,0,2.57,RE,1722455504
245,ad dilam,23.9915,47.1627,310.38,13,58,4.1,SA,1722455505
246,sibolga,1.7427,98.7792,298.99,79,92,0.66,ID,1722455507
247,puerto ayora,-0.7393,-90.3518,301.13,88,80,4.87,EC,1722455508
248,washougal,45.5826,-122.3534,301.69,63,0,1.34,US,1722455509
249,coquimbo,-29.9533,-71.3436,286.0,85,100,2.57,CL,1722455379
250,talnakh,69.4865,88.3972,291.01,44,10,2.28,RU,1722455512
251,gasa,31.5,34.4667,300.27,75,0,1.76,PS,1722455513
252,remire-montjoly,4.9167,-52.2667,305.17,58,1,4.63,GF,1722455514
253,hawaiian paradise park,19.5933,-154.9731,300.22,76,75,2.06,US,1722455516
254,prince george,53.9166,-122.753,289.84,94,100,4.63,CA,1722455517
255,st. john's,47.5649,-52.7093,296.92,93,100,6.38,CA,1722455308
256,jamestown,42.097,-79.2353,303.44,65,40,4.12,US,1722455520
257,atafu village,-8.5421,-172.5159,301.01,75,100,10.19,TK,1722455521
258,bardai,11.65,7.2333,295.67,88,100,2.31,NG,1722455522
259,saldanha,-33.0117,17.9442,281.18,77,0,6.31,ZA,1722455524
260,prado,-17.3411,-39.2208,296.92,75,5,3.66,BR,1722455525
261,yeppoon,-23.1333,150.7333,280.03,83,0,4.71,AU,1722455526
262,grand-lahou,5.1367,-5.0242,296.75,89,99,5.37,CI,1722455528
263,taft,31.7471,54.2088,310.12,15,40,2.06,IR,1722455529
264,isafjordur,66.0755,-23.124,283.41,79,86,2.78,IS,1722455530
265,waiuku,-37.25,174.75,283.33,96,100,2.16,NZ,1722455532
266,najran,17.4924,44.1277,305.51,30,100,5.41,SA,1722455533
267,mount pearl,47.5166,-52.7813,296.46,93,100,6.06,CA,1722455534
268,fiambala,-27.6871,-67.6149,301.64,6,49,4.1,AR,1722455536
269,east london,-33.0153,27.9116,286.52,66,0,6.33,ZA,1722455537
270,dunedin,-45.8742,170.5036,275.82,86,72,2.65,NZ,1722455532
271,wenchang,30.904,118.4887,301.09,77,0,2.36,CN,1722455540
272,den burg,53.0542,4.7972,293.69,82,0,5.14,NL,1722455542
273,usinsk,65.9939,57.5281,288.38,74,12,4.76,RU,1722455543
274,quellon,-43.1167,-73.6167,282.74,91,100,12.06,CL,1722455545
275,asaita,11.5636,41.4394,307.15,40,74,3.74,ET,1722455546
276,hamilton,39.1834,-84.5333,305.73,69,100,5.14,US,1722455547
277,colonia,50.9333,6.95,297.01,80,0,0.51,DE,1722455328
278,ebaye,8.7748,167.7392,301.16,83,0,4.12,MH,1722455550
279,kerikeri,-35.2268,173.9474,281.93,96,97,0.46,NZ,1722455551
280,miramichi,47.0043,-65.4654,304.59,41,100,5.22,CA,1722455552
281,poronaysk,49.2167,143.1167,286.99,95,100,1.39,RU,1722455554
282,flying fish cove,-10.4217,105.6791,297.97,83,40,4.12,CX,1722455555
283,primero de mayo,-32.2552,-58.4228,292.9,73,100,5.17,AR,1722455556
284,sao tome,0.3365,6.7273,298.17,73,40,5.14,ST,1722455558
285,peace river,56.2501,-117.286,289.32,88,100,7.2,CA,1722455559
286,haiku-pauwela,20.9219,-156.3051,300.49,67,40,8.75,US,1722455560
287,dompu,-8.5356,118.4622,295.83,94,9,1.04,ID,1722455562
288,brooks,50.5834,-111.8851,303.14,26,0,4.12,CA,1722455563
289,hotan,37.0997,79.9269,303.45,22,99,2.98,CN,1722455564
290,homa bay,-0.5273,34.4571,293.35,81,98,0.88,KE,1722455566
291,kavaratti,10.5669,72.642,299.89,88,100,4.53,IN,1722455567
292,iecava,56.5986,24.2022,290.81,86,88,3.0,LV,1722455570
293,nemuro,43.3236,145.575,288.83,94,100,1.07,JP,1722455571
294,yangambi,0.8102,24.4336,294.87,96,55,1.17,CD,1722455572
295,colares,38.7992,-9.4469,295.7,78,20,9.26,PT,1722455573
296,urucui,-7.2294,-44.5561,308.59,18,0,4.34,BR,1722455575
297,bechar,31.6167,-2.2167,312.33,10,0,3.09,DZ,1722455576
298,xinyi,22.373,110.9475,298.02,90,52,2.28,CN,1722455577
299,sao vicente,-23.9631,-46.3919,297.19,53,40,3.6,BR,1722455579
300,tenosique,17.4833,-91.4333,306.36,54,18,4.83,MX,1722455580
301,necochea,-38.5473,-58.7368,288.14,58,100,5.97,AR,1722455581
302,badiyah,22.45,58.8,302.57,59,100,1.03,OM,1722455583
303,cidreira,-30.1811,-50.2056,289.16,86,9,4.78,BR,1722455494
304,zag,46.9441,99.165,286.09,87,85,0.08,MN,1722455586
305,al jubayl,27.0112,49.6583,305.46,71,8,1.76,SA,1722455588
306,tazovsky,67.4667,78.7,286.53,96,100,4.83,RU,1722455589
307,sarh,9.1429,18.3923,296.3,95,100,1.72,TD,1722455591
308,broken hill,-31.95,141.4333,279.14,52,0,3.42,AU,1722455592
309,dhidhdhoo,6.8833,73.1,301.03,81,100,4.78,MV,1722455594
310,lukolela,-1.0605,17.1821,299.07,43,95,1.45,CD,1722455595
311,tamandare,-8.7597,-35.1047,297.69,83,16,4.44,BR,1722455597
312,mead,47.7674,-117.3549,303.14,37,0,2.57,US,1722455598
313,takab,36.4009,47.1133,292.76,28,0,1.79,IR,1722455600
314,gaalkacyo,6.7697,47.4308,298.58,65,78,9.25,SO,1722455601
315,jianguang,28.1938,115.7836,300.26,82,4,2.56,CN,1722455603
316,northam,51.0333,-4.2167,294.05,79,99,1.17,GB,1722455604
317,alotau,-10.3069,150.4462,296.58,96,100,1.86,PG,1722455606
318,cabo san lucas,22.8909,-109.9124,303.32,72,0,4.12,MX,1722455607
319,bochum,51.4833,7.2167,296.76,76,96,1.03,DE,1722455609
320,newman,37.3138,-121.0208,305.94,17,0,0.8,US,1722455610
321,dawson creek,55.7666,-120.2362,287.95,67,40,5.66,CA,1722455394
322,chita,52.0333,113.55,286.09,88,99,2.0,RU,1722455613
323,termoli,41.9888,14.9895,297.83,56,0,0.91,IT,1722455615
324,taungoo,18.9333,96.4333,296.65,99,100,2.91,MM,1722455616
325,vredendal,-31.6683,18.5012,283.72,59,0,2.16,ZA,1722455618
326,cabugao,17.7931,120.4578,299.07,93,100,4.12,PH,1722455620
327,vanino,49.0869,140.2543,286.81,97,100,0.84,RU,1722455621
328,maralal,1.0968,36.698,288.38,80,56,1.49,KE,1722455624
329,yurga,55.7231,84.8861,290.07,80,84,2.76,RU,1722455626
330,chernyshevsk,52.5243,117.0174,284.88,80,58,2.69,RU,1722455627
331,vilyuysk,63.7553,121.6247,281.39,75,78,1.9,RU,1722455629
332,campbell river,50.0163,-125.2446,296.26,68,40,3.09,CA,1722455631
333,mambajao,9.2504,124.7156,300.29,79,100,1.88,PH,1722455632
334,tierp,60.3427,17.5181,290.05,88,49,3.26,SE,1722455634
335,juneau,58.3019,-134.4197,286.71,88,100,3.6,US,1722455635
336,holualoa,19.6228,-155.9522,298.46,83,75,4.63,US,1722455637
337,queenstown,-31.8976,26.8753,276.14,40,0,0.58,ZA,1722455639
338,afaahiti,-17.75,-149.2833,296.08,64,31,7.69,PF,1722455640
339,makurazaki,31.2667,130.3167,299.49,88,2,4.78,JP,1722455642
340,liwale,-9.7667,37.9333,289.91,72,45,0.36,TZ,1722455643
341,san fernando de apure,7.8878,-67.4724,300.63,85,100,1.64,VE,1722455645
342,senillosa,-39.0,-68.4167,283.03,27,100,2.06,AR,1722455646
343,catemaco,18.4167,-95.1167,302.37,67,28,2.51,MX,1722455648
344,berdigestyakh,62.0989,126.6992,278.66,87,12,1.82,RU,1722455650
345,abra pampa,-22.7205,-65.697,289.77,5,0,0.24,AR,1722455651
346,chilaw,7.5758,79.7953,300.16,84,100,8.23,LK,1722455653
347,chonchi,-42.6128,-73.8092,282.1,93,100,5.73,CL,1722455654
348,hammerfest,70.6634,23.6821,288.4,77,0,6.17,NO,1722455656
349,riyadh,24.6877,46.7219,310.23,13,53,3.96,SA,1722455658
350,estreito,-5.7833,-43.25,309.52,17,0,3.37,BR,1722455659
351,undurkhaan,47.3194,110.6556,290.25,86,100,2.88,MN,1722455661
352,goderich,43.7501,-81.7165,300.32,78,20,4.12,CA,1722455663
353,kasane,-17.8167,25.15,292.48,25,10,3.61,BW,1722455666
354,duarte,34.1394,-117.9773,307.12,39,0,3.6,US,1722455668
355,kununurra,-15.7667,128.7333,288.14,63,11,2.06,AU,1722455670
356,antsiranana,-12.2787,49.2917,295.71,68,2,7.07,MG,1722455673
357,kuytun,54.3419,101.5036,289.04,97,100,2.3,RU,1722455675
358,tual,-5.6667,132.75,298.42,87,61,8.61,ID,1722455677
359,akranes,64.3218,-22.0749,286.18,82,100,10.54,IS,1722455678
360,challapata,-18.9,-66.7667,286.35,12,0,2.34,BO,1722455680
361,ust'-kalmanka,52.1207,83.305,292.05,71,31,0.98,RU,1722455682
362,el playon,7.4713,-73.2031,306.3,61,50,1.24,CO,1722455683
363,murzuq,25.9155,13.9184,303.71,19,9,4.59,LY,1722455685
364,klungkung,-8.5333,115.4,298.53,95,64,1.3,ID,1722455687
365,erseke,40.3378,20.6789,291.33,49,0,1.55,AL,1722455689
366,vilyuchinsk,52.9306,158.4028,286.3,97,100,0.45,RU,1722455690
367,gadzhiyevo,69.2551,33.3362,282.94,90,99,7.41,RU,1722455692
368,manay,7.215,126.5397,296.87,86,92,2.58,PH,1722455694
369,copiapo,-27.3667,-70.3333,295.06,39,100,3.29,CL,1722455509
370,sinop,41.7711,34.8709,288.47,96,27,1.17,TR,1722455697
371,palora,-1.7,-77.9333,302.21,58,87,1.37,EC,1722455699
372,pinheiro,-2.5214,-45.0825,305.51,46,32,2.13,BR,1722455700
373,driedorf,50.6333,8.1833,292.57,95,78,0.8,DE,1722455702
374,taranagar,28.6709,75.0351,308.07,51,100,6.04,IN,1722455706
375,puerto cortez,15.8333,-87.95,305.34,66,100,5.43,HN,1722455707
376,hafar al-batin,28.4328,45.9708,312.47,7,0,5.14,SA,1722455709
377,bontang,0.1333,117.5,299.85,81,5,0.55,ID,1722455710
378,alekseyevskoye,55.3071,50.1135,289.96,76,9,2.41,RU,1722455712
379,rongelap,11.1635,166.8941,301.22,79,73,6.87,MH,1722455713
380,kosong,38.3788,128.4676,303.42,91,0,3.67,KR,1722455715
381,griffith,41.5284,-87.4237,306.51,55,0,1.79,US,1722455717
382,onguday,50.75,86.15,286.9,92,0,1.21,RU,1722455718
383,kangding,30.0513,101.9603,286.06,83,0,3.28,CN,1722455720
384,inhambane,-23.865,35.3833,293.37,75,45,2.72,MZ,1722455721
385,vila velha,-20.3297,-40.2925,294.12,95,100,2.68,BR,1722455673
386,petropavlovsk-kamchatsky,53.0452,158.6483,285.48,100,100,1.0,RU,1722455725
387,juba,4.8517,31.5825,293.53,98,100,1.37,SS,1722455726
388,brookings,44.3114,-96.7984,303.77,78,20,5.66,US,1722455506
389,witu,-2.3889,40.4382,296.94,85,32,5.0,KE,1722455730
390,yeniseysk,58.4497,92.1703,287.17,95,8,1.67,RU,1722455731
391,port isabel,26.0734,-97.2086,307.2,65,0,7.2,US,1722455733
392,papao,-17.75,-149.55,296.97,65,36,7.79,PF,1722455734
393,inongo,-1.95,18.2667,298.14,53,29,2.2,CD,1722455736
394,codrington,-38.2667,141.9667,277.38,75,100,3.67,AU,1722455738
395,ballito,-29.539,31.2144,283.23,76,0,1.54,ZA,1722455739
396,malacacheta,-17.8422,-42.0767,294.29,57,98,2.66,BR,1722455741
397,cedeira,43.6797,-8.0209,292.58,48,8,3.02,ES,1722455743
398,ad darb,17.7229,42.2526,307.7,43,100,2.95,SA,1722455745
399,manzhouli,49.6,117.4333,288.44,92,8,3.68,CN,1722455746
400,moyo,3.6609,31.7247,291.25,98,99,0.78,UG,1722455748
401,katrineholm,58.9959,16.2072,290.84,59,69,3.49,SE,1722455749
402,sangareddi,17.6294,78.0917,297.42,89,100,8.03,IN,1722455751
403,yuzhno-kurilsk,44.0306,145.8556,288.08,95,0,0.55,RU,1722455753
404,umm kaddadah,13.6017,26.6876,301.45,60,100,8.75,SD,1722455755
405,palmer,42.1584,-72.3287,301.84,60,98,0.45,US,1722455756
406,katsuura,35.1333,140.3,297.42,88,98,4.55,JP,1722455758
407,yarmouth,41.7057,-70.2286,300.47,83,0,6.69,US,1722455597
408,gokwe,-18.2048,28.9349,289.15,23,0,2.95,ZW,1722455761
409,tokar,18.4254,37.729,305.83,50,97,7.06,SD,1722455763
410,cockburn town,21.4612,-71.1419,301.59,81,0,8.58,TC,1722455765
411,ribeira brava,32.65,-17.0667,297.5,80,10,2.95,PT,1722455766
412,kirensk,57.7853,108.1119,284.76,60,69,3.41,RU,1722455768
413,atmore,31.0238,-87.4939,308.09,61,96,1.7,US,1722455770
414,san salvador de jujuy,-24.1946,-65.2971,291.89,25,5,2.59,AR,1722455635
415,ancud,-41.8697,-73.8203,282.93,86,100,11.66,CL,1722455773
416,fort st. john,56.2499,-120.8529,287.09,77,75,8.75,CA,1722455565
417,ar ruseris,11.8659,34.3869,295.93,84,100,4.29,SD,1722455776
418,soroti,1.7146,33.6111,291.6,93,100,3.4,UG,1722455778
419,porto novo,6.4965,2.6036,298.05,87,99,3.75,BJ,1722455780
420,strezhevoy,60.7333,77.5889,286.68,92,47,1.32,RU,1722455781
421,radhanpur,23.8333,71.6,302.4,77,100,7.76,IN,1722455783
422,as sulayyil,20.4607,45.5779,310.29,13,100,6.04,SA,1722455784
423,rancho palos verdes,33.7445,-118.387,301.74,75,20,7.2,US,1722455719
424,mount isa,-20.7333,139.5,280.02,49,0,1.54,AU,1722455788
425,tinogasta,-28.0632,-67.5649,299.75,12,30,3.21,AR,1722455789
426,saint-joseph,-21.3667,55.6167,292.36,77,3,1.86,RE,1722455791
427,nizhneudinsk,54.9076,99.0276,288.64,94,100,1.99,RU,1722455792
428,hampton bays,40.869,-72.5176,301.23,71,100,5.36,US,1722455546
429,xilin hot,43.9667,116.0333,290.6,97,100,1.57,CN,1722455969
430,chibougamau,49.9168,-74.3659,295.94,83,75,0.0,CA,1722455970
431,thunder bay,48.4001,-89.3168,304.1,45,40,4.12,CA,1722455810
432,zhirnov,48.1709,41.1261,295.84,40,92,5.07,RU,1722455974
433,guasdualito,7.2424,-70.7324,304.15,66,100,2.57,VE,1722455976
434,uturoa,-16.7333,-151.4333,296.88,54,79,7.71,PF,1722455977
435,cukai,4.25,103.4167,297.12,90,69,2.36,MY,1722455978
436,novofedorivka,46.1713,32.3178,296.17,67,0,6.9,UA,1722455980
437,pisco,-13.7,-76.2167,291.18,77,0,4.12,PE,1722455981
438,portland,45.5234,-122.6762,301.77,61,0,1.34,US,1722455400
439,ola,59.5833,151.2833,284.49,81,100,3.72,RU,1722455984
440,taulaga,-11.0553,-171.0883,300.38,59,91,8.54,AS,1722455985
441,forster,-32.1667,152.5167,283.31,90,99,5.9,AU,1722455987
442,nagqu,31.5,92.0,276.49,52,100,1.17,CN,1722455988
443,sangmelima,2.9333,11.9833,294.18,87,76,1.12,CM,1722455989
444,minas de marcona,-15.2119,-75.1103,289.74,62,31,3.55,PE,1722455991
445,corinth,37.9407,22.9573,300.87,38,0,1.05,GR,1722455992
446,tela,15.7833,-87.45,305.12,70,40,3.09,HN,1722455993
447,preobrazheniye,42.9019,133.9064,293.62,99,100,0.63,RU,1722455995
448,angaur state,6.906,134.13,302.0,73,100,5.13,PW,1722455996
449,amga,60.8953,131.9608,283.54,77,99,1.43,RU,1722455997
450,abashiri,44.0213,144.2697,289.39,94,100,0.46,JP,1722455999
451,tanjung pandan,-2.75,107.65,298.23,92,64,2.54,ID,1722456000
452,ntungamo,-0.8833,29.65,293.58,68,74,1.02,UG,1722456003
453,sinabang,2.4803,96.3801,299.86,82,99,1.15,ID,1722456005
454,eyl,7.9803,49.8164,298.05,78,34,11.87,SO,1722456007
455,tinajo,29.0788,-13.7081,297.64,69,40,8.75,ES,1722456008
456,reno,39.5296,-119.8138,307.56,21,75,3.09,US,1722456009
457,pochinki,54.6988,44.8668,287.84,94,95,3.19,RU,1722456012
458,kargasok,59.0556,80.8572,286.76,88,4,1.39,RU,1722456013
459,pandan,14.0453,124.1694,299.58,84,100,2.25,PH,1722456014
460,hasaki,35.7333,140.8333,298.37,88,100,4.94,JP,1722456016
461,quelimane,-17.8786,36.8883,297.12,78,0,2.06,MZ,1722456017
462,siluko,6.5386,5.1609,296.17,97,55,1.38,NG,1722456018
463,bogande,12.9714,-0.1436,302.09,64,100,5.38,BF,1722456020
464,gohpur,26.8833,93.6333,300.04,92,58,0.93,IN,1722456021
465,tsiroanomandidy,-18.7667,46.0333,288.84,37,8,1.19,MG,1722456022
466,elliot lake,46.3834,-82.6331,303.85,36,26,3.27,CA,1722456024
467,swift current,50.2834,-107.8014,303.6,26,20,4.12,CA,1722456025
468,tebessa,35.4042,8.1242,304.75,11,0,3.6,DZ,1722456026
469,nguigmi,14.2495,13.1092,301.26,69,100,9.02,NE,1722456028
470,tidjikja,18.5564,-11.4271,308.6,25,15,4.69,MR,1722456029
471,lewistown,40.5992,-77.5714,306.68,55,0,3.6,US,1722456031
472,lashkar gah,31.5938,64.3716,306.9,16,22,3.47,AF,1722456032
473,kittila,67.6647,24.8936,289.23,88,100,1.54,FI,1722456033
474,mohr,54.3528,9.7167,291.23,74,4,3.09,DE,1722456035
475,mabaruma,8.2,-59.7833,302.6,67,99,2.53,GY,1722456036
476,moussoro,13.6408,16.4901,297.93,85,100,4.85,TD,1722456037
477,kimbe,-5.5502,150.1429,296.49,94,25,2.39,PG,1722456038
478,marsabit,2.3284,37.9899,293.52,46,99,7.23,KE,1722456040
479,arkhangel'sk,64.5401,40.5433,286.21,100,100,2.0,RU,1722456041
480,praia da vitoria,38.7333,-27.0667,298.57,65,20,4.85,PT,1722456042
481,balabac,7.9868,117.0645,300.12,77,93,0.71,PH,1722456044
482,vernon,50.2581,-119.2691,303.57,32,0,1.79,CA,1722456045
483,malvan,16.0667,73.4667,299.8,88,100,8.82,IN,1722456046
484,palapye,-22.546,27.1251,290.87,53,0,6.94,BW,1722456048
485,dudinka,69.4058,86.1778,289.02,62,7,2.3,RU,1722456049
486,susaki,33.3667,133.2833,299.19,78,8,1.74,JP,1722456016
487,warrnambool,-38.3833,142.4833,278.01,86,94,3.85,AU,1722456052
488,partur,19.6,76.2167,298.06,87,100,5.6,IN,1722456053
489,glenvale,-27.5648,151.9076,277.53,75,0,0.82,AU,1722456054
490,eraan,9.0629,117.7016,298.66,90,39,1.05,PH,1722456056
491,ezhva,61.8128,50.7283,287.03,100,20,2.0,RU,1722456058
492,tocopilla,-22.092,-70.1979,291.27,69,8,3.04,CL,1722456060
493,bamboo flat,11.7,92.7167,301.2,89,75,2.57,IN,1722456062
494,golaghat,26.5167,93.9667,299.7,92,54,2.79,IN,1722456065
495,sogndal,61.2283,7.1003,287.36,76,20,0.0,NO,1722456066
496,pinarhisar,41.6242,27.52,292.75,68,0,5.21,TR,1722456067
497,altai,46.3722,96.2583,284.24,79,73,2.46,MN,1722456069
498,howrah,22.5892,88.3103,301.15,94,100,2.06,IN,1722456070
499,santa elena de uairen,4.6167,-61.1333,298.35,61,36,5.04,VE,1722456071
500,tadine,-21.55,167.8833,292.87,77,100,4.83,NC,1722456073
501,ngereklmadel,7.4883,134.4856,301.69,77,93,5.14,PW,1722456074
502,cole harbour,44.6724,-63.4751,300.81,74,75,5.66,CA,1722456075
503,darwin,-12.4611,130.8418,296.14,78,40,1.54,AU,1722456077
504,dungarpur,23.8333,73.7167,300.85,79,100,4.97,IN,1722456078
505,carloforte,39.145,8.3058,299.94,59,0,4.19,IT,1722456079
506,pacific grove,36.6177,-121.9166,297.8,79,48,2.68,US,1722456081
507,mersa matruh,31.3525,27.2453,301.26,74,0,4.12,EG,1722456082
508,brokopondo,4.75,-55.1667,304.54,53,0,2.11,SR,1722456083
509,bartica,6.4,-58.6167,304.33,64,87,2.14,GY,1722456085
510,banisilan,7.4908,124.7242,294.9,94,100,0.84,PH,1722456086
511,krasnyy chikoy,50.3643,108.7512,292.62,67,100,0.95,RU,1722456087
512,dapaong,10.8639,0.205,299.08,77,100,2.55,TG,1722456089
513,neiafu,-18.65,-173.9833,295.53,73,40,3.09,TO,1722456090
514,juan griego,11.0817,-63.9655,305.22,62,1,5.14,VE,1722456092
515,tindouf,27.6711,-8.1474,316.4,9,40,1.54,DZ,1722456093
516,roccella ionica,38.322,16.4009,298.92,55,0,3.62,IT,1722456094
517,nuku'alofa,-21.1333,-175.2,294.34,83,75,2.06,TO,1722456096
518,north bend,43.4065,-124.2243,301.07,77,54,5.68,US,1722456097
519,las khorey,11.1595,48.1967,306.38,52,30,5.04,SO,1722456059
520,lata,40.1629,-8.3327,293.75,89,0,1.81,PT,1722456099
521,egilsstadir,65.2653,-14.3948,285.1,82,40,3.6,IS,1722456101
522,reuleuet,5.2167,96.2833,300.68,66,100,1.77,ID,1722456102
523,albertina,-22.2008,-46.6158,297.47,35,17,2.17,BR,1722456072
524,slave lake,55.2834,-114.769,293.14,73,100,2.57,CA,1722455980
525,mar del plata,-38.0023,-57.5575,286.22,86,0,6.71,AR,1722455986
526,margate,51.3813,1.3862,294.21,80,26,6.52,GB,1722456107
527,susanville,40.4163,-120.653,304.16,28,0,1.79,US,1722456110
528,rhinelander,45.6366,-89.4121,303.89,42,0,0.0,US,1722456111
529,laguna,38.421,-121.4238,307.64,42,0,2.57,US,1722456113
530,salym,60.0625,71.4789,289.0,82,85,1.98,RU,1722456114
531,kokpekty,48.75,82.4,292.87,46,0,3.14,KZ,1722456116
532,zaozersk,69.4005,32.4476,282.2,92,62,6.38,RU,1722456117
533,wodonga,-36.1167,146.8833,275.35,100,0,1.58,AU,1722456118
534,revelstoke,50.9832,-118.2023,297.16,64,75,3.09,CA,1722456120
535,mejit,10.2753,170.8646,301.23,78,17,5.97,MH,1722456121
536,solleftea,63.1667,17.2667,289.07,83,100,4.04,SE,1722456122
537,wagar,16.1525,36.2032,300.92,60,94,7.97,SD,1722456125
538,ruteng,-8.6136,120.4721,289.58,98,50,0.78,ID,1722456126
539,naze,28.3667,129.4833,298.66,82,79,2.74,JP,1722456127
540,sidi alouane,35.3751,10.939,301.79,57,0,1.5,TN,1722456129
541,biguacu,-27.4942,-48.6556,292.16,90,100,0.85,BR,1722456130
542,mankoeng,-23.9,29.8167,283.16,93,32,2.4,ZA,1722456131
543,saint-philippe,-21.3585,55.7679,292.92,78,3,1.73,RE,1722456132
544,zhalantun,48.0,122.7167,291.87,96,100,5.79,CN,1722456134
545,okhotsk,59.3833,143.3,283.9,94,100,2.12,RU,1722456135
546,turpan,42.9333,89.1667,308.18,21,100,0.52,CN,1722456136
547,hailar,49.2,119.7,291.21,79,95,4.72,CN,1722456138
548,abadeh,31.1608,52.6506,301.52,23,70,2.12,IR,1722456139
549,piti village,13.4626,144.6933,299.18,91,100,4.09,GU,1722456141
550,sierra grande,-41.606,-65.3557,286.17,36,100,6.66,AR,1722456142
551,sao gabriel da cachoeira,-0.1303,-67.0892,304.04,66,40,1.54,BR,1722456143
552,dondo,-19.6094,34.7431,295.88,88,3,2.01,MZ,1722456145
553,antofagasta,-23.65,-70.4,288.75,70,9,3.54,CL,1722455988
554,banda aceh,5.5577,95.3222,300.99,73,95,5.72,ID,1722456147
555,severo-yeniseyskiy,60.3725,93.0408,286.92,98,100,1.33,RU,1722456149
556,keflavik,64.0049,-22.5624,286.1,94,100,11.83,IS,1722456150
557,goroka,-6.0834,145.3873,288.62,99,100,0.91,PG,1722456151
558,argo,37.6333,22.7333,300.25,38,0,2.59,GR,1722456153
559,kulhudhuffushi,6.6221,73.07,300.79,82,100,4.94,MV,1722456154
560,pedro ii,-4.4247,-41.4586,305.96,19,1,3.6,BR,1722456155
561,verkhov'ye,52.8119,37.2425,287.5,93,66,4.79,RU,1722456157
562,chernyshevskiy,63.0128,112.4714,279.32,74,55,2.01,RU,1722456158
563,ust'-ilimsk,58.0006,102.6619,287.26,93,100,1.42,RU,1722456159
564,ishikawa,26.4233,127.8214,302.23,87,40,3.58,JP,1722456160
565,punta alta,-38.8759,-62.0736,287.55,55,100,3.58,AR,1722456030
566,oltinko'l,40.8011,72.1634,303.01,21,1,2.21,UZ,1722456163
567,cozumel,20.5083,-86.9458,306.19,62,40,5.14,MX,1722456164
568,rusk,31.796,-95.1502,307.33,55,0,3.6,US,1722456069
569,easley,34.8298,-82.6015,307.25,57,0,1.54,US,1722456115
570,tabasco,18.0,-92.6667,308.19,64,75,7.2,MX,1722456168
571,alice springs,-23.7,133.8833,271.9,64,0,2.57,AU,1722456170
572,isangel,-19.55,169.2667,295.0,84,100,2.89,VU,1722456171
573,tshabong,-26.05,22.45,286.38,23,16,4.54,BW,1722456172
574,napili-honokowai,20.9708,-156.6705,301.12,73,54,5.48,US,1722456174
575,burang,30.25,81.1667,285.18,78,92,1.74,CN,1722456175
576,caconda,-13.7333,15.0667,290.61,38,4,1.91,AO,1722456176
577,morant bay,17.8815,-76.4093,305.94,69,48,6.05,JM,1722456178
578,mahmutlar,36.949,36.1923,300.05,85,21,0.88,TR,1722456179
579,jining,35.405,116.5814,300.18,89,100,3.49,CN,1722456180
580,ambon,-3.6954,128.1814,299.75,95,40,1.54,ID,1722456182
581,fortaleza,-3.7227,-38.5247,302.63,84,20,6.69,BR,1722456042
582,dubreka,9.7911,-13.5233,300.19,91,40,1.9,GN,1722456184
583,belel,7.05,14.4333,289.66,99,100,1.85,CM,1722456186
584,bangkalan,-7.0455,112.7351,300.12,87,9,2.38,ID,1722456187
585,novosmolinskiy,56.2841,43.0507,288.86,97,100,2.5,RU,1722456188
586,aripuana,-9.1667,-60.6333,310.1,19,1,1.68,BR,1722456190
587,isyangulovo,52.1909,52.1909,292.96,51,100,2.76,RU,1722456191
588,zima,53.9202,102.0442,289.54,97,100,1.59,RU,1722456192
589,khanty-mansiysk,61.0042,69.0019,290.21,94,0,2.0,RU,1722456194
590,new norfolk,-42.7826,147.0587,278.1,98,19,1.1,AU,1722456197
